{
    "center": { "lat": 48.8692, "lng": 2.3379 },
    "zoom": 13,
    "stations": [
      { "name": "Porte Dauphine", "lat": 48.8746, "lng": 2.2787 },
      { "name": "Victor Hugo", "lat": 48.8732, "lng": 2.2887 },
      { "name": "Charles de Gaulle-Étoile", "lat": 48.8738, "lng": 2.2950 },
      { "name": "Ternes", "lat": 48.8796, "lng": 2.2945 },
      { "name": "Courcelles", "lat": 48.8839, "lng": 2.3016 },
      { "name": "Monceau", "lat": 48.8791, "lng": 2.3132 },
      { "name": "Villiers", "lat": 48.8842, "lng": 2.3256 },
      { "name": "Rome", "lat": 48.8840, "lng": 2.3326 },
      { "name": "Place de Clichy", "lat": 48.8847, "lng": 2.3254 },
      { "name": "Blanche", "lat": 48.8846, "lng": 2.3333 },
      { "name": "Pigalle", "lat": 48.8833, "lng": 2.3378 },
      { "name": "Anvers", "lat": 48.8840, "lng": 2.3430 },
      { "name": "Barbès-Rochechouart", "lat": 48.8848, "lng": 2.3481 },
      { "name": "La Chapelle", "lat": 48.8863, "lng": 2.3573 },
      { "name": "Stalingrad", "lat": 48.8832, "lng": 2.3650 },
      { "name": "Jaurès", "lat": 48.8836, "lng": 2.3752 },
      { "name": "Colonel Fabien", "lat": 48.8779, "lng": 2.3813 },
      { "name": "Belleville", "lat": 48.8673, "lng": 2.3773 },
      { "name": "Couronnes", "lat": 48.8646, "lng": 2.3807 },
      { "name": "Ménilmontant", "lat": 48.8619, "lng": 2.3834 },
      { "name": "Père Lachaise", "lat": 48.8606, "lng": 2.3916 },
      { "name": "Philippe Auguste", "lat": 48.8605, "lng": 2.3997 },
      { "name": "Alexandre Dumas", "lat": 48.8594, "lng": 2.4085 },
      { "name": "Avron", "lat": 48.8495, "lng": 2.4147 },
      { "name": "Nation", "lat": 48.8483, "lng": 2.3952 }
    ]
  }
  